{"type": "FeatureCollection", "name": "hofladen", "crs": {"type": "name", "properties": {"name": "urn:ogc:def:crs:OGC:1.3:CRS84"}}, "features": [{"type": "Feature", "geometry": {"type": "Point", "coordinates": [11.45584, 48.23992]}, "properties": {"fid": 1, "Name": "Beerengarten Rothschwaige", "name": "Beerengarten Rothschwaige", "kategorie": "", "adresse": "M\u00fcnchner Str. 15", "plz": "85757", "ort": "Karlsfeld", "tel_nr": "08131 95876", "www": "www.beeren-garten.de", "email": "offenbeck@gmx.de", "vertrieb": "https://www.dida-regional.de"}}, {"type": "Feature", "geometry": {"type": "Point", "coordinates": [11.44013, 48.2888]}, "properties": {"fid": 2, "Name": "Bentenrieder-Hof\n", "name": "Bentenrieder-Hof", "kategorie": "", "adresse": "Dorfstra\u00dfe 69 ", "plz": "85241", "ort": "Prittlbach", "tel_nr": "08131 735775", "www": "https://www.bentenrieder-hof.de/", "email": "info@bentenrieder-hof.de", "vertrieb": "https://www.dida-regional.de"}}, {"type": "Feature", "geometry": {"type": "Point", "coordinates": [11.54887, 48.55597]}, "properties": {"fid": 3, "Name": "Bimeshof\n", "name": "Bimeshof", "kategorie": "", "adresse": "Burgbergweg 3", "plz": "85276\u00a0", "ort": "Pfaffenhofen an der Ilm", "tel_nr": "08441 78 82 17", "www": "http://www.bimeshof.de/index.html", "email": "info@bimeshof.de", "vertrieb": "https://marktschwaermer.de/de-DE/assemblies/12142 "}}, {"type": "Feature", "geometry": {"type": "Point", "coordinates": [11.51085, 48.52795]}, "properties": {"fid": 4, "Name": "Breitner B\u00e4ckerei\n", "name": "Breitner B\u00e4ckerei", "kategorie": "B\u00e4cker", "adresse": "Moosburger Str. 5", "plz": "85276\u00a0", "ort": "Pfaffenhofen an der Ilm", "tel_nr": "08441 9712", "www": "https://www.baecker-breitner.de/", "email": "info@baecker-breitner.de", "vertrieb": ""}}, {"type": "Feature", "geometry": {"type": "Point", "coordinates": [11.37899, 48.34133]}, "properties": {"fid": 5, "Name": "Bumbaurhof\n", "name": "Bumbaurhof", "kategorie": "B\u00e4cker", "adresse": "Ried 11", "plz": "85229", "ort": "Markt Indersdorf", "tel_nr": "08136 5425", "www": "www.bumbaurhof.de", "email": "josef.deichl@t-online.de", "vertrieb": "https://www.dida-regional.de"}}, {"type": "Feature", "geometry": {"type": "Point", "coordinates": [11.56758, 48.54339]}, "properties": {"fid": 6, "Name": "Doimerhof\n", "name": "Doimerhof", "kategorie": "", "adresse": "Thalhof 7", "plz": "85276\u00a0", "ort": "Pfaffenhofen an der Ilm", "tel_nr": "08441 9896", "www": "https://www.doimerhof.de/", "email": "info@doimerhof.de", "vertrieb": ""}}, {"type": "Feature", "geometry": {"type": "Point", "coordinates": [11.37569, 48.49325]}, "properties": {"fid": 7, "Name": "Felber Biohof\n", "name": "Felber Biohof", "kategorie": "", "adresse": "Kohlstatt 4", "plz": "85302", "ort": "Gerolsbach", "tel_nr": "8445 929148", "www": "www.kohlstatt-lamas.de", "email": "\u00a0kohlstattlamas@aol.com", "vertrieb": "https://marktschwaermer.de/de-DE/assemblies/12142 "}}, {"type": "Feature", "geometry": {"type": "Point", "coordinates": [11.36253, 48.43846]}, "properties": {"fid": 8, "Name": "Ferlhof\n", "name": "Ferlhof", "kategorie": "Hofladen B\u00e4cker", "adresse": "Ferlhof 1", "plz": "86567", "ort": "Hilgertshausen", "tel_nr": "08250 7656", "www": "http://www.ferlhof-erleben.de/", "email": "ferlhof@hotmail.de", "vertrieb": "https://www.dida-regional.de"}}, {"type": "Feature", "geometry": {"type": "Point", "coordinates": [11.44209, 48.51936]}, "properties": {"fid": 9, "Name": "Froschbach Hofladen\n", "name": "Froschbach Hofladen", "kategorie": "", "adresse": "Froschbach 4", "plz": "85298", "ort": "Scheyern", "tel_nr": "08441 72985", "www": "https://www.hofladen-froschbach.de/index.html", "email": "mail@hofladen-froschbach.de", "vertrieb": ""}}, {"type": "Feature", "geometry": {"type": "Point", "coordinates": [11.37172, 48.60106]}, "properties": {"fid": 10, "Name": "G\u00e4rtnerei der Regens Wagner Werkst\u00e4tten Hohenwart\n", "name": "G\u00e4rtnerei der Regens Wagner Werkst\u00e4tten Hohenwart", "kategorie": "", "adresse": "Neuburger Str. 45", "plz": "86558", "ort": "Hohenwart", "tel_nr": "08443 851260", "www": "www.rw-hohenwart.de", "email": "hw-gaertnerei@regens-wagner.de ", "vertrieb": ""}}, {"type": "Feature", "geometry": {"type": "Point", "coordinates": [11.52089, 48.5441]}, "properties": {"fid": 11, "Name": "Galster Bio-Naturmetzgerei\n", "name": "Galster Bio-Naturmetzgerei", "kategorie": "", "adresse": "F\u00f6rnbachstra\u00dfe 19", "plz": "85276", "ort": "Pfaffenhofen an der Ilm", "tel_nr": "08441 9803", "www": "www.Metzgerei-Galster.de", "email": "Metzgerei-Galster@t-online.de", "vertrieb": ""}}, {"type": "Feature", "geometry": {"type": "Point", "coordinates": [11.50893, 48.4668]}, "properties": {"fid": 12, "Name": "Geisenhofer Biokammerl\n", "name": "Geisenhofer Biokammerl", "kategorie": "", "adresse": "Angerhofstr. 1", "plz": "85293", "ort": "Reichertshausen", "tel_nr": "08441 794 138", "www": "", "email": "", "vertrieb": "https://marktschwaermer.de/de-DE/assemblies/12142"}}, {"type": "Feature", "geometry": {"type": "Point", "coordinates": [11.31177, 48.42108]}, "properties": {"fid": 13, "Name": "Glas Resi\n", "name": "Glas Resi", "kategorie": "Imker", "adresse": "Hangstr. 2", "plz": "86567", "ort": "Tandern", "tel_nr": "08250 15 90", "www": "", "email": "", "vertrieb": ""}}, {"type": "Feature", "geometry": {"type": "Point", "coordinates": [11.61407, 48.65228]}, "properties": {"fid": 14, "Name": "Grabmaier Biohof\n", "name": "Grabmaier Biohof", "kategorie": "", "adresse": "Stadelhof 3\u00a0", "plz": "85283", "ort": "Wolnzach", "tel_nr": "08452  735 00 38", "www": "https://www.diebiohennen.de/die-bauern/bauernhof-grabmaier/", "email": "biohof-grabmaier@gmx.de", "vertrieb": "https://marktschwaermer.de/de-DE/assemblies/12142"}}, {"type": "Feature", "geometry": {"type": "Point", "coordinates": [11.70077, 48.49485]}, "properties": {"fid": 15, "Name": "Grassl-Hof\n", "name": "Grassl-Hof", "kategorie": "", "adresse": "Ruhpalzing 26", "plz": "85395", "ort": "Wolfersdorf", "tel_nr": "", "www": "", "email": "", "vertrieb": "https://marktschwaermer.de/de-DE/assemblies/12142"}}, {"type": "Feature", "geometry": {"type": "Point", "coordinates": [11.4387, 48.35561]}, "properties": {"fid": 16, "Name": "Gro\u00dfmann-Neuh\u00e4usler\n", "name": "Gro\u00dfmann-Neuh\u00e4usler", "kategorie": "", "adresse": "R\u00f6hrmooser Stra\u00dfe 12", "plz": "85256", "ort": "Pasenbach", "tel_nr": "08139 99300", "www": "http://grossmann-agrar.de/", "email": "info@grossmann-agrar.de", "vertrieb": "https://www.unserland.info/"}}, {"type": "Feature", "geometry": {"type": "Point", "coordinates": [11.51296, 48.58293]}, "properties": {"fid": 17, "Name": "Grubbauer-Hof\n", "name": "Grubbauer-Hof", "kategorie": "", "adresse": "Stra\u00dfhofer Strasse 22", "plz": "85276", "ort": "Pfaffenhofen an der Ilm", "tel_nr": "", "www": "", "email": "", "vertrieb": "https://marktschwaermer.de/de-DE/assemblies/12142"}}, {"type": "Feature", "geometry": {"type": "Point", "coordinates": [11.35419, 48.42974]}, "properties": {"fid": 18, "Name": "H\u00e4userer Metzgerei\n", "name": "H\u00e4userer Metzgerei", "kategorie": "", "adresse": "Aichacher Stra\u00dfe 4", "plz": "86567", "ort": "Hilgertshausen", "tel_nr": "08250 217", "www": "", "email": "", "vertrieb": ""}}, {"type": "Feature", "geometry": {"type": "Point", "coordinates": [11.37813, 48.40123]}, "properties": {"fid": 19, "Name": "Hefele Biohof\n", "name": "Hefele Biohof", "kategorie": "", "adresse": "B\u00fcrgermester-Hefele-Stra\u00dfe 12", "plz": "85229", "ort": "Markt Indersdorf", "tel_nr": "08136 5816", "www": "http://biohof-hefele.de/", "email": "info@biohof-hefele.de", "vertrieb": "https://www.dida-regional.de"}}, {"type": "Feature", "geometry": {"type": "Point", "coordinates": [11.18703, 48.36059]}, "properties": {"fid": 20, "Name": "Heitmeier Biohof\n", "name": "Heitmeier Biohof", "kategorie": "", "adresse": "Lichtenberg 2", "plz": "85250", "ort": "Altom\u00fcnster", "tel_nr": "08258 261", "www": "https://spargelhof-heitmeier.de/", "email": "info@spargelhof-heitmeier.de", "vertrieb": ""}}, {"type": "Feature", "geometry": {"type": "Point", "coordinates": [11.41373, 48.4366]}, "properties": {"fid": 21, "Name": "Hofer Getr\u00e4nkemarkt\n", "name": "Hofer Getr\u00e4nkemarkt", "kategorie": "", "adresse": "Aichacher Stra\u00dfe 15", "plz": "85305", "ort": "Jetzendorf", "tel_nr": "08137 92455", "www": "", "email": "", "vertrieb": ""}}, {"type": "Feature", "geometry": {"type": "Point", "coordinates": [11.39469, 48.46619]}, "properties": {"fid": 22, "Name": "Hofmann", "name": "Hofmann", "kategorie": "", "adresse": "Lichthausen 1", "plz": "85302", "ort": "Gerolsbach", "tel_nr": "", "www": "", "email": "", "vertrieb": ""}}, {"type": "Feature", "geometry": {"type": "Point", "coordinates": [11.45339, 48.48606]}, "properties": {"fid": 23, "Name": "Ilm-Aronia\n", "name": "Ilm-Aronia", "kategorie": "", "adresse": "Bernhardstr. 3b", "plz": "85298", "ort": "Scheyern", "tel_nr": "", "www": "", "email": "", "vertrieb": "https://marktschwaermer.de/de-DE/assemblies/12142"}}, {"type": "Feature", "geometry": {"type": "Point", "coordinates": [11.47412, 48.46579]}, "properties": {"fid": 24, "Name": "Karmann Hofladen", "name": "Karmann Hofladen", "kategorie": "", "adresse": "Kreut 2", "plz": "85293", "ort": "Reichertshausen", "tel_nr": "0162 2807312", "www": "https://www.quell-fischzucht-kreut.de/", "email": "bestellung@quell-fischzucht-kreut.de", "vertrieb": "https://marktschwaermer.de/de-DE/assemblies/12142"}}, {"type": "Feature", "geometry": {"type": "Point", "coordinates": [11.32289, 48.55888]}, "properties": {"fid": 25, "Name": "Kaspar Biohof\n", "name": "Kaspar Biohof", "kategorie": "", "adresse": "Hickerbachstra\u00dfe 19", "plz": "86579", "ort": "Waidhofen", "tel_nr": "", "www": "http://biohof-kaspar.com/", "email": "", "vertrieb": "https://marktschwaermer.de/de-DE/assemblies/12142"}}, {"type": "Feature", "geometry": {"type": "Point", "coordinates": [11.35507, 48.4301]}, "properties": {"fid": 26, "Name": "Kornprobst B\u00e4ckerei\n", "name": "Kornprobst B\u00e4ckerei", "kategorie": "", "adresse": "Schrobenhausener Str. 4", "plz": "86567", "ort": "Hilgertshausen", "tel_nr": "08250 259", "www": "www.baeckerei-kornprobst.de", "email": "kontakt@baeckerei-kornprobst.de", "vertrieb": ""}}, {"type": "Feature", "geometry": {"type": "Point", "coordinates": [11.52132, 48.53098]}, "properties": {"fid": 27, "Name": "Kramerbr\u00e4u Saaten und \u00d6le\n", "name": "Kramerbr\u00e4u Saaten und \u00d6le", "kategorie": "", "adresse": "Ludwig-Hirschberger-Allee 11", "plz": "85276", "ort": "Pfaffenhofen an der Ilm", "tel_nr": "08441 504 305 10", "www": "www.kramerbraeu.de", "email": "info@kramerbraeu.de", "vertrieb": "https://marktschwaermer.de/de-DE/assemblies/12142"}}, {"type": "Feature", "geometry": {"type": "Point", "coordinates": [11.16346, 48.29669]}, "properties": {"fid": 28, "Name": "Lamplhof Hofmetzgerei\n", "name": "Lamplhof Hofmetzgerei", "kategorie": "", "adresse": "Kirchplatz 2", "plz": "85235", "ort": "Pfaffenhofen/Glonn", "tel_nr": "08134 92808", "www": "https://lampl-hof.de/", "email": "kontakt@lamplhof.info", "vertrieb": "https://www.dida-regional.de"}}, {"type": "Feature", "geometry": {"type": "Point", "coordinates": [11.45184, 48.52963]}, "properties": {"fid": 29, "Name": "Lauseckerhof\n", "name": "Lauseckerhof", "kategorie": "", "adresse": "F\u00fcrholzen 15", "plz": "85276\u00a0", "ort": "Pfaffenhofen an der Ilm", "tel_nr": "0151 42243695", "www": "", "email": "lauseckerhof@gmx.de", "vertrieb": ""}}, {"type": "Feature", "geometry": {"type": "Point", "coordinates": [11.35742, 48.43795]}, "properties": {"fid": 30, "Name": "Lechenbauer", "name": "Lechenbauer", "kategorie": "", "adresse": "Mannried 5", "plz": "86567", "ort": "Hilgertshausen", "tel_nr": "08250 99 71 06", "www": "", "email": "", "vertrieb": ""}}, {"type": "Feature", "geometry": {"type": "Point", "coordinates": [11.24656, 48.3103]}, "properties": {"fid": 31, "Name": "Lindenhof", "name": "Lindenhof", "kategorie": "", "adresse": "Lindenhof 1", "plz": "85254\u00a0", "ort": "Sulzemoos", "tel_nr": "08134 92290", "www": "www.inkarna.de", "email": "info@inkarna.de", "vertrieb": "https://www.dida-regional.de"}}, {"type": "Feature", "geometry": {"type": "Point", "coordinates": [11.28689, 48.40324]}, "properties": {"fid": 32, "Name": "Limmer G\u00e4rtnerei\n", "name": "Limmer G\u00e4rtnerei", "kategorie": "", "adresse": "G\u00e4rtnerstra\u00dfe 6", "plz": "85250", "ort": "Altom\u00fcnster", "tel_nr": "08254 8627", "www": "", "email": "", "vertrieb": ""}}, {"type": "Feature", "geometry": {"type": "Point", "coordinates": [11.25587, 48.38818]}, "properties": {"fid": 33, "Name": "Mair\u00b4s Backstube\n", "name": "Mair\u00b4s Backstube", "kategorie": "", "adresse": "Herzog Georg Str. 6", "plz": "85250", "ort": "Altom\u00fcnster", "tel_nr": "08254 8229", "www": "", "email": "www.mairsbackstube.de", "vertrieb": ""}}, {"type": "Feature", "geometry": {"type": "Point", "coordinates": [11.46263, 48.52138]}, "properties": {"fid": 34, "Name": "Majas Bienenhonig\n", "name": "Majas Bienenhonig", "kategorie": "", "adresse": "F\u00fcrholzener Str. 28", "plz": "85298", "ort": "Scheyern", "tel_nr": "", "www": "", "email": "", "vertrieb": "https://marktschwaermer.de/de-DE/assemblies/12142"}}, {"type": "Feature", "geometry": {"type": "Point", "coordinates": [11.50744, 48.55709]}, "properties": {"fid": 35, "Name": "Moierhof\n", "name": "Moierhof", "kategorie": "", "adresse": "P\u00f6rnbacher Str.1", "plz": "85276", "ort": "Pfaffenhofen an der Ilm", "tel_nr": "", "www": "", "email": "", "vertrieb": "https://marktschwaermer.de/de-DE/assemblies/12142"}}, {"type": "Feature", "geometry": {"type": "Point", "coordinates": [11.27583, 48.35008]}, "properties": {"fid": 36, "Name": "Moslhof\n", "name": "Moslhof", "kategorie": "", "adresse": "M\u00fcnchener Str. 36", "plz": "85253", "ort": "Kleinberghofen", "tel_nr": "08254 2336", "www": "", "email": "moslhof1@web.de", "vertrieb": "https://www.dida-regional.de"}}, {"type": "Feature", "geometry": {"type": "Point", "coordinates": [11.3304, 48.44228]}, "properties": {"fid": 37, "Name": "Oberhauser", "name": "Oberhauser", "kategorie": "", "adresse": "Stadlhalm 13", "plz": "86567", "ort": "Hilgertshausen", "tel_nr": "", "www": "", "email": "", "vertrieb": ""}}, {"type": "Feature", "geometry": {"type": "Point", "coordinates": [11.60188, 48.61777]}, "properties": {"fid": 38, "Name": "Pilze Ulrich", "name": "Pilze Ulrich", "kategorie": "", "adresse": "Burgstaller Stra\u00dfe 27", "plz": "85283", "ort": "Wolnzach", "tel_nr": "08442 92670", "www": "https://www.pilze-ulrich.de/", "email": "\u00a0info@pilze-ulrich.de", "vertrieb": "https://marktschwaermer.de/de-DE/assemblies/12142"}}, {"type": "Feature", "geometry": {"type": "Point", "coordinates": [11.30759, 48.42456]}, "properties": {"fid": 39, "Name": "Regnath B\u00e4ckerei\n", "name": "Regnath B\u00e4ckerei", "kategorie": "", "adresse": "Dachauer Stra\u00dfe 20", "plz": "86567", "ort": "Tandern", "tel_nr": "8250 453", "www": "", "email": "", "vertrieb": ""}}, {"type": "Feature", "geometry": {"type": "Point", "coordinates": [11.42731, 48.33842]}, "properties": {"fid": 40, "Name": "Reischlhof\n", "name": "Reischlhof", "kategorie": "", "adresse": "Kieningweg 4", "plz": "85244", "ort": "Gro\u00dfinzemos", "tel_nr": "08139 6654", "www": "https://www.reischl-hof.de/", "email": "info@reischl-hof.de", "vertrieb": "https://www.dida-regional.de"}}, {"type": "Feature", "geometry": {"type": "Point", "coordinates": [11.40964, 48.41876]}, "properties": {"fid": 41, "Name": "Riedmair Biohof\n", "name": "Riedmair Biohof", "kategorie": "", "adresse": "Weingaten ", "plz": "85305", "ort": "Jetzendorf", "tel_nr": "08137 5019", "www": "", "email": "", "vertrieb": ""}}, {"type": "Feature", "geometry": {"type": "Point", "coordinates": [11.3791, 48.43184]}, "properties": {"fid": 42, "Name": "Riedmair ", "name": "Riedmair ", "kategorie": "", "adresse": "Thalmansdorf 12", "plz": "86567", "ort": "Hilgertshausen", "tel_nr": "", "www": "", "email": "", "vertrieb": ""}}, {"type": "Feature", "geometry": {"type": "Point", "coordinates": [11.298, 48.56356]}, "properties": {"fid": 43, "Name": "Rinderhof \n", "name": "Rinderhof ", "kategorie": "", "adresse": "Rinderhof 1 ", "plz": "86529", "ort": "Schrobenhausen", "tel_nr": "0171 4253879", "www": "https://www.rinderhof.de/", "email": "kainz@wzw.tum.de", "vertrieb": "https://marktschwaermer.de/de-DE/assemblies/12142"}}, {"type": "Feature", "geometry": {"type": "Point", "coordinates": [11.34174, 48.45473]}, "properties": {"fid": 44, "Name": "Salvamoser Georg\n", "name": "Salvamoser Georg", "kategorie": "Imker", "adresse": "Eichenried 5", "plz": "86567", "ort": "Hilgertshausen", "tel_nr": "08250 1275", "www": "", "email": "", "vertrieb": ""}}, {"type": "Feature", "geometry": {"type": "Point", "coordinates": [11.35567, 48.38328]}, "properties": {"fid": 45, "Name": "Sandmair\n", "name": "Sandmair", "kategorie": "", "adresse": "Michelsberg 5", "plz": "85229", "ort": "Markt Indersdorf", "tel_nr": "08136 80 80 46", "www": "https://www.sandmairhof.de/", "email": "info@sandmair-hof.de", "vertrieb": "https://www.dida-regional.de"}}, {"type": "Feature", "geometry": {"type": "Point", "coordinates": [11.37825, 48.43115]}, "properties": {"fid": 46, "Name": "Schaipp\n", "name": "Schaipp", "kategorie": "", "adresse": "Thalmannsdorf 6", "plz": "86567", "ort": "Hilgertshausen", "tel_nr": "", "www": "", "email": "", "vertrieb": ""}}, {"type": "Feature", "geometry": {"type": "Point", "coordinates": [11.39532, 48.4025]}, "properties": {"fid": 47, "Name": "Schenkelhof\n", "name": "Schenkelhof", "kategorie": "", "adresse": "Jetzendorfer Stra\u00dfe 9", "plz": "85258", "ort": "Fr\u00e4nking", "tel_nr": "08136 384", "www": "http://www.schenkelhof.de/", "email": "manfred.schenkel@arcor.de", "vertrieb": "https://www.dida-regional.de"}}, {"type": "Feature", "geometry": {"type": "Point", "coordinates": [11.26314, 48.28987]}, "properties": {"fid": 48, "Name": "Schmid", "name": "Schmid", "kategorie": "", "adresse": "Kirchstra\u00dfe 6", "plz": "85254", "ort": "Sulzemoos", "tel_nr": "08135 1290", "www": "https://schmibaurs-freilandeier.de", "email": "MuJ.Schmid@t-online.de", "vertrieb": "https://www.unserland.info/"}}, {"type": "Feature", "geometry": {"type": "Point", "coordinates": [11.28411, 48.55333]}, "properties": {"fid": 49, "Name": "Schmidmair Biolandhof", "name": "Schmidmair Biolandhof", "kategorie": "", "adresse": "Altenfurt 2", "plz": "86529", "ort": "Schrobenhausen", "tel_nr": "", "www": "", "email": "", "vertrieb": "https://marktschwaermer.de/de-DE/assemblies/12142"}}, {"type": "Feature", "geometry": {"type": "Point", "coordinates": [11.40961, 48.25747]}, "properties": {"fid": 50, "Name": "Schneiderhof\n", "name": "Schneiderhof", "kategorie": "", "adresse": "Brucker Str. 90", "plz": "85221", "ort": "Dachau-Mitterndorf", "tel_nr": "08131 83568", "www": "www.schneiderhof-mitterndorf.de", "email": "schneiderhof@gmx.de", "vertrieb": "https://www.dida-regional.de"}}, {"type": "Feature", "geometry": {"type": "Point", "coordinates": [11.42753, 48.33781]}, "properties": {"fid": 51, "Name": "Sch\u00f6ll\n", "name": "Sch\u00f6ll", "kategorie": "", "adresse": "Kieningweg 2", "plz": "85244", "ort": "Gro\u00dfinzemoos", "tel_nr": "08139 6656", "www": "https://www.gemuese-schoell.de", "email": "info@gemuese-schoell.de", "vertrieb": "https://www.unserland.info/"}}, {"type": "Feature", "geometry": {"type": "Point", "coordinates": [11.70958, 48.47894]}, "properties": {"fid": 52, "Name": "Sch\u00f6ttl\n", "name": "Sch\u00f6ttl", "kategorie": "", "adresse": "Berghaselbacher Stra\u00dfe 2b", "plz": "85395", "ort": "Wolfersdorf", "tel_nr": "", "www": "", "email": "", "vertrieb": "https://marktschwaermer.de/de-DE/assemblies/12142"}}, {"type": "Feature", "geometry": {"type": "Point", "coordinates": [11.34282, 48.50178]}, "properties": {"fid": 53, "Name": "Stockhausener Freilandeier\n", "name": "Stockhausener Freilandeier", "kategorie": "", "adresse": "Stockhausen 1", "plz": "85302", "ort": "Gerolsbach", "tel_nr": "08445 303989", "www": "http://stockhausenerfreilandeier.de/", "email": "eier-stockhausen@gmx.de", "vertrieb": "https://marktschwaermer.de/de-DE/assemblies/12142"}}, {"type": "Feature", "geometry": {"type": "Point", "coordinates": [11.48159, 48.52271]}, "properties": {"fid": 54, "Name": "Waldinger Hofmetzgerei\n", "name": "Waldinger Hofmetzgerei", "kategorie": "", "adresse": "Radlh\u00f6fe 3 ", "plz": "85276", "ort": "Pfaffenhofen an der Ilm", "tel_nr": "084 41 78 31 54", "www": "https://hofmetzgerei-waldinger.de/", "email": "info@hofmetzgerei-waldinger.de", "vertrieb": "https://marktschwaermer.de/de-DE/assemblies/12142"}}, {"type": "Feature", "geometry": {"type": "Point", "coordinates": [11.31483, 48.28991]}, "properties": {"fid": 55, "Name": "Waldis Hasseln\u00fcsse\n", "name": "Waldis Hasseln\u00fcsse", "kategorie": "", "adresse": "Ortstrasse 9", "plz": "85247", "ort": "Machtenstein", "tel_nr": "08138 6976340", "www": "www.waldis-haselnuss.de", "email": "info@waldis-haselnuss.de", "vertrieb": "https://www.dida-regional.de"}}, {"type": "Feature", "geometry": {"type": "Point", "coordinates": [11.43367, 48.29129]}, "properties": {"fid": 56, "Name": "Wallner\u00b4s Bioputen\n", "name": "Wallner\u00b4s Bioputen", "kategorie": "", "adresse": "Goppertshofen 5", "plz": "85241", "ort": "Hebertshausen", "tel_nr": "08131 79212", "www": "www.wallners-bioputen.de", "email": "info@wallners-bioputen.de", "vertrieb": "https://www.dida-regional.de"}}, {"type": "Feature", "geometry": {"type": "Point", "coordinates": [11.36163, 48.25514]}, "properties": {"fid": 57, "Name": "Weller Biohof\n", "name": "Weller Biohof", "kategorie": "", "adresse": "M\u00fchlstra\u00dfe 8", "plz": "85232", "ort": "Bergkirchen", "tel_nr": "08131  351113", "www": "http://biohof-weller.de/", "email": "info@biohof-weller.de", "vertrieb": "https://www.dida-regional.de"}}, {"type": "Feature", "geometry": {"type": "Point", "coordinates": [11.35021, 48.43177]}, "properties": {"fid": 58, "Name": "Weigl Stefan\n", "name": "Weigl Stefan", "kategorie": "Imker", "adresse": "Parkstra\u00dfe 17a", "plz": "86567", "ort": "Hilgertshausen", "tel_nr": "", "www": "", "email": "", "vertrieb": ""}}, {"type": "Feature", "geometry": {"type": "Point", "coordinates": [11.14736, 48.2823]}, "properties": {"fid": 59, "Name": "Wolf Spargel&Erdbeeren\n", "name": "Wolf Spargel&Erdbeeren", "kategorie": "", "adresse": "Bayerzeller Str. 10 a", "plz": "85235", "ort": "Ebersried", "tel_nr": "08134 92991", "www": "www.erdbeeren-wolf.de", "email": "info@erdbeeren-wolf.de", "vertrieb": "https://www.dida-regional.de"}}, {"type": "Feature", "geometry": {"type": "Point", "coordinates": [11.35431, 48.44789]}, "properties": {"fid": 60, "Name": "W\u00f6rmann Christoph\n", "name": "W\u00f6rmann Christoph", "kategorie": "", "adresse": "Thonhof 1", "plz": "86567", "ort": "Hilgertshausen", "tel_nr": "", "www": "", "email": "", "vertrieb": ""}}, {"type": "Feature", "geometry": {"type": "Point", "coordinates": [11.67657, 48.39799]}, "properties": {"fid": 61, "Name": "Zierer Milchhof\n", "name": "Zierer Milchhof", "kategorie": "", "adresse": "Kleinbachern 3", "plz": "85354", "ort": "Freising", "tel_nr": "08161 7517", "www": "http://www.milchhof-zierer.de/milchhof-zierer.de/homepage.html", "email": "kontakt@milchhof-zierer.de", "vertrieb": "https://marktschwaermer.de/de-DE/assemblies/12142"}}, {"geometry": {"coordinates": [11.4010437, 48.4009474], "type": "Point"}, "properties": {"fid": 62, "name": "Auer", "kategorie": "Hofladen", "adresse": "Am Dumpf 2", "plz": "85258", "ort": "Weichs", "tel_nr": "08136 807960", "www": "", "email": "", "vertrieb": ""}, "type": "Feature"}]}