{
"type": "FeatureCollection",
"name": "hofladen",
"crs": { "type": "name", "properties": { "name": "urn:ogc:def:crs:OGC:1.3:CRS84" } },
"features": [
{ "type": "Feature", "properties": { "fid": 1, "Name": "Beerengarten Rothschwaige" }, "geometry": { "type": "Point", "coordinates": [ 11.45584, 48.23992 ] } },
{ "type": "Feature", "properties": { "fid": 2, "Name": "Bentenrieder-Hof\n" }, "geometry": { "type": "Point", "coordinates": [ 11.44013, 48.2888 ] } },
{ "type": "Feature", "properties": { "fid": 3, "Name": "Bimeshof\n" }, "geometry": { "type": "Point", "coordinates": [ 11.54887, 48.55597 ] } },
{ "type": "Feature", "properties": { "fid": 4, "Name": "Breitner Bäckerei\n" }, "geometry": { "type": "Point", "coordinates": [ 11.51085, 48.52795 ] } },
{ "type": "Feature", "properties": { "fid": 5, "Name": "Bumbaurhof\n" }, "geometry": { "type": "Point", "coordinates": [ 11.37899, 48.34133 ] } },
{ "type": "Feature", "properties": { "fid": 6, "Name": "Doimerhof\n" }, "geometry": { "type": "Point", "coordinates": [ 11.56758, 48.54339 ] } },
{ "type": "Feature", "properties": { "fid": 7, "Name": "Felber Biohof\n" }, "geometry": { "type": "Point", "coordinates": [ 11.37569, 48.49325 ] } },
{ "type": "Feature", "properties": { "fid": 8, "Name": "Ferlhof\n" }, "geometry": { "type": "Point", "coordinates": [ 11.36253, 48.43846 ] } },
{ "type": "Feature", "properties": { "fid": 9, "Name": "Froschbach Hofladen\n" }, "geometry": { "type": "Point", "coordinates": [ 11.44209, 48.51936 ] } },
{ "type": "Feature", "properties": { "fid": 10, "Name": "Gärtnerei der Regens Wagner Werkstätten Hohenwart\n" }, "geometry": { "type": "Point", "coordinates": [ 11.37172, 48.60106 ] } },
{ "type": "Feature", "properties": { "fid": 11, "Name": "Galster Bio-Naturmetzgerei\n" }, "geometry": { "type": "Point", "coordinates": [ 11.52089, 48.5441 ] } },
{ "type": "Feature", "properties": { "fid": 12, "Name": "Geisenhofer Biokammerl\n" }, "geometry": { "type": "Point", "coordinates": [ 11.50893, 48.4668 ] } },
{ "type": "Feature", "properties": { "fid": 13, "Name": "Glas Resi\n" }, "geometry": { "type": "Point", "coordinates": [ 11.31177, 48.42108 ] } },
{ "type": "Feature", "properties": { "fid": 14, "Name": "Grabmaier Biohof\n" }, "geometry": { "type": "Point", "coordinates": [ 11.61407, 48.65228 ] } },
{ "type": "Feature", "properties": { "fid": 15, "Name": "Grassl-Hof\n" }, "geometry": { "type": "Point", "coordinates": [ 11.70077, 48.49485 ] } },
{ "type": "Feature", "properties": { "fid": 16, "Name": "Großmann-Neuhäusler\n" }, "geometry": { "type": "Point", "coordinates": [ 11.4387, 48.35561 ] } },
{ "type": "Feature", "properties": { "fid": 17, "Name": "Grubbauer-Hof\n" }, "geometry": { "type": "Point", "coordinates": [ 11.51296, 48.58293 ] } },
{ "type": "Feature", "properties": { "fid": 18, "Name": "Häuserer Metzgerei\n" }, "geometry": { "type": "Point", "coordinates": [ 11.35419, 48.42974 ] } },
{ "type": "Feature", "properties": { "fid": 19, "Name": "Hefele Biohof\n" }, "geometry": { "type": "Point", "coordinates": [ 11.37813, 48.40123 ] } },
{ "type": "Feature", "properties": { "fid": 20, "Name": "Heitmeier Biohof\n" }, "geometry": { "type": "Point", "coordinates": [ 11.18703, 48.36059 ] } },
{ "type": "Feature", "properties": { "fid": 21, "Name": "Hofer Getränkemarkt\n" }, "geometry": { "type": "Point", "coordinates": [ 11.41373, 48.4366 ] } },
{ "type": "Feature", "properties": { "fid": 22, "Name": "Hofmann" }, "geometry": { "type": "Point", "coordinates": [ 11.39469, 48.46619 ] } },
{ "type": "Feature", "properties": { "fid": 23, "Name": "Ilm-Aronia\n" }, "geometry": { "type": "Point", "coordinates": [ 11.45339, 48.48606 ] } },
{ "type": "Feature", "properties": { "fid": 24, "Name": "Karmann Hofladen" }, "geometry": { "type": "Point", "coordinates": [ 11.47412, 48.46579 ] } },
{ "type": "Feature", "properties": { "fid": 25, "Name": "Kaspar Biohof\n" }, "geometry": { "type": "Point", "coordinates": [ 11.32289, 48.55888 ] } },
{ "type": "Feature", "properties": { "fid": 26, "Name": "Kornprobst Bäckerei\n" }, "geometry": { "type": "Point", "coordinates": [ 11.35507, 48.4301 ] } },
{ "type": "Feature", "properties": { "fid": 27, "Name": "Kramerbräu Saaten und Öle\n" }, "geometry": { "type": "Point", "coordinates": [ 11.52132, 48.53098 ] } },
{ "type": "Feature", "properties": { "fid": 28, "Name": "Lamplhof Hofmetzgerei\n" }, "geometry": { "type": "Point", "coordinates": [ 11.16346, 48.29669 ] } },
{ "type": "Feature", "properties": { "fid": 29, "Name": "Lauseckerhof\n" }, "geometry": { "type": "Point", "coordinates": [ 11.45184, 48.52963 ] } },
{ "type": "Feature", "properties": { "fid": 30, "Name": "Lechenbauer" }, "geometry": { "type": "Point", "coordinates": [ 11.35742, 48.43795 ] } },
{ "type": "Feature", "properties": { "fid": 31, "Name": "Lindenhof" }, "geometry": { "type": "Point", "coordinates": [ 11.24656, 48.3103 ] } },
{ "type": "Feature", "properties": { "fid": 32, "Name": "Limmer Gärtnerei\n" }, "geometry": { "type": "Point", "coordinates": [ 11.28689, 48.40324 ] } },
{ "type": "Feature", "properties": { "fid": 33, "Name": "Mair´s Backstube\n" }, "geometry": { "type": "Point", "coordinates": [ 11.25587, 48.38818 ] } },
{ "type": "Feature", "properties": { "fid": 34, "Name": "Majas Bienenhonig\n" }, "geometry": { "type": "Point", "coordinates": [ 11.46263, 48.52138 ] } },
{ "type": "Feature", "properties": { "fid": 35, "Name": "Moierhof\n" }, "geometry": { "type": "Point", "coordinates": [ 11.50744, 48.55709 ] } },
{ "type": "Feature", "properties": { "fid": 36, "Name": "Moslhof\n" }, "geometry": { "type": "Point", "coordinates": [ 11.27583, 48.35008 ] } },
{ "type": "Feature", "properties": { "fid": 37, "Name": "Oberhauser" }, "geometry": { "type": "Point", "coordinates": [ 11.3304, 48.44228 ] } },
{ "type": "Feature", "properties": { "fid": 38, "Name": "Pilze Ulrich" }, "geometry": { "type": "Point", "coordinates": [ 11.60188, 48.61777 ] } },
{ "type": "Feature", "properties": { "fid": 39, "Name": "Regnath Bäckerei\n" }, "geometry": { "type": "Point", "coordinates": [ 11.30759, 48.42456 ] } },
{ "type": "Feature", "properties": { "fid": 40, "Name": "Reischlhof\n" }, "geometry": { "type": "Point", "coordinates": [ 11.42731, 48.33842 ] } },
{ "type": "Feature", "properties": { "fid": 41, "Name": "Riedmair Biohof\n" }, "geometry": { "type": "Point", "coordinates": [ 11.40964, 48.41876 ] } },
{ "type": "Feature", "properties": { "fid": 42, "Name": "Riedmair " }, "geometry": { "type": "Point", "coordinates": [ 11.3791, 48.43184 ] } },
{ "type": "Feature", "properties": { "fid": 43, "Name": "Rinderhof \n" }, "geometry": { "type": "Point", "coordinates": [ 11.298, 48.56356 ] } },
{ "type": "Feature", "properties": { "fid": 44, "Name": "Salvamoser Georg\n" }, "geometry": { "type": "Point", "coordinates": [ 11.34174, 48.45473 ] } },
{ "type": "Feature", "properties": { "fid": 45, "Name": "Sandmair\n" }, "geometry": { "type": "Point", "coordinates": [ 11.35567, 48.38328 ] } },
{ "type": "Feature", "properties": { "fid": 46, "Name": "Schaipp\n" }, "geometry": { "type": "Point", "coordinates": [ 11.37825, 48.43115 ] } },
{ "type": "Feature", "properties": { "fid": 47, "Name": "Schenkelhof\n" }, "geometry": { "type": "Point", "coordinates": [ 11.39532, 48.4025 ] } },
{ "type": "Feature", "properties": { "fid": 48, "Name": "Schmid" }, "geometry": { "type": "Point", "coordinates": [ 11.26314, 48.28987 ] } },
{ "type": "Feature", "properties": { "fid": 49, "Name": "Schmidmair Biolandhof" }, "geometry": { "type": "Point", "coordinates": [ 11.28411, 48.55333 ] } },
{ "type": "Feature", "properties": { "fid": 50, "Name": "Schneiderhof\n" }, "geometry": { "type": "Point", "coordinates": [ 11.40961, 48.25747 ] } },
{ "type": "Feature", "properties": { "fid": 51, "Name": "Schöll\n" }, "geometry": { "type": "Point", "coordinates": [ 11.42753, 48.33781 ] } },
{ "type": "Feature", "properties": { "fid": 52, "Name": "Schöttl\n" }, "geometry": { "type": "Point", "coordinates": [ 11.70958, 48.47894 ] } },
{ "type": "Feature", "properties": { "fid": 53, "Name": "Stockhausener Freilandeier\n" }, "geometry": { "type": "Point", "coordinates": [ 11.34282, 48.50178 ] } },
{ "type": "Feature", "properties": { "fid": 54, "Name": "Waldinger Hofmetzgerei\n" }, "geometry": { "type": "Point", "coordinates": [ 11.48159, 48.52271 ] } },
{ "type": "Feature", "properties": { "fid": 55, "Name": "Waldis Hasselnüsse\n" }, "geometry": { "type": "Point", "coordinates": [ 11.31483, 48.28991 ] } },
{ "type": "Feature", "properties": { "fid": 56, "Name": "Wallner´s Bioputen\n" }, "geometry": { "type": "Point", "coordinates": [ 11.43367, 48.29129 ] } },
{ "type": "Feature", "properties": { "fid": 57, "Name": "Weller Biohof\n" }, "geometry": { "type": "Point", "coordinates": [ 11.36163, 48.25514 ] } },
{ "type": "Feature", "properties": { "fid": 58, "Name": "Weigl Stefan\n" }, "geometry": { "type": "Point", "coordinates": [ 11.35021, 48.43177 ] } },
{ "type": "Feature", "properties": { "fid": 59, "Name": "Wolf Spargel&Erdbeeren\n" }, "geometry": { "type": "Point", "coordinates": [ 11.14736, 48.2823 ] } },
{ "type": "Feature", "properties": { "fid": 60, "Name": "Wörmann Christoph\n" }, "geometry": { "type": "Point", "coordinates": [ 11.35431, 48.44789 ] } },
{ "type": "Feature", "properties": { "fid": 61, "Name": "Zierer Milchhof\n" }, "geometry": { "type": "Point", "coordinates": [ 11.67657, 48.39799 ] } }
]
}
